time(millisecond),datetime(utc),drone1latitude,drone1longitude,drone1height_above_takeoff(feet),drone1speed(mph),drone1distance(feet),drone1satellites,drone1voltage(v),drone1max_speed(mph),drone1max_distance(feet),drone1battery_percent,drone1ascent(feet),drone1flycState,drone1message,drone2latitude,drone2longitude,drone2height_above_takeoff(feet),drone2speed(mph),drone2distance(feet),drone2satellites,drone2voltage(v),drone2max_speed(mph),drone2max_distance(feet),drone2battery_percent,drone2ascent(feet),drone2flycState,drone2message,drone3latitude,drone3longitude,drone3height_above_takeoff(feet),drone3speed(mph),drone3distance(feet),drone3satellites,drone3voltage(v),drone3max_speed(mph),drone3max_distance(feet),drone3battery_percent,drone3ascent(feet),drone3flycState,drone3message,Time(s),Frame,CO-category,TrackingObjectAccuracy,ContinueTracking(T/F),ML-info,TrackingObjectStatus,DetectObjectAccuracy,ML-Tracking-info
35100,11/3/2019 22:19,38.89419932,-92.29442579,25.590552,3.579104,86.8684411,18,14.412,5.2120702,86.8684411,73,25.590552,P-GPS,,38.42475616,-92.12756261,21.653544,0,0,16,0,0,0,71,21.653544,P-GPS,,38.89450251,-92.29438911,70.209976,0,9.439206339,19,14.011,1.7448132,10.28038091,95,70.209976,P-GPS,,35,35,6,0.705827944,TRUE,TRAIN,SEEN,0.016611036_0.24502969_-0.039907206_-0.10109149_-0.00086349616_0.09965451_0.017292349_-0.1089798_0.07991643_-0.057642393_0.0979918_-0.06720163_-0.09132802_0.0158853_0.010298972_-0.081062414_-0.053470083_-0.010000206_-0.013089241_-0.17423496_-0.03216733_0.19421257_-0.08429398_-0.080564186_0.044208568_-0.08961988_0.091311306_0.11921423_0.12119691_0.10332374_0.030209897_-0.19633035_-0.029972197_-0.101279855_0.08383706_0.020363618_-0.010351055_-0.11764904_0.074070536_0.1779328_-0.028632961_0.06365143_-0.05025327_0.1299068_-0.014478829_0.13075733_-0.025690638_-0.011451882_-0.051018424_-0.071012825_-0.05084826_0.22158009_-0.072525136_-0.039943602_-0.1508881_0.03573035_-0.1036801_0.12102824_-0.14575428_0.10340461_-0.08706732_-0.03159268_0.1826411_-0.0026935723_-0.007849562_-0.115438126_0.06975315_-0.0038946765_-0.016057242_0.12706622_0.17008303_0.014895835_0.030607985_-0.07385143_0.030557599_0.029824177_-0.10987688_-0.022038737_-0.12071916_-0.015626822_0.071494155_0.07806262_0.032641668_0.10460238_-0.035836384_0.031171724_-0.0329435_-0.14774604_-0.09873263_0.040836137_0.0006810161_-0.14699464_-0.06515162_0.00066259137_0.08833599_-0.13517167_-0.026221186_-0.10130132_0.03813228_0.06646047_-0.082610026_0.099400505_0.009808533_-0.036744416_-0.13434811_0.06808503_0.049463782_0.05294116_-0.028475303_-0.0024371604_0.17990103_-0.12099854_-0.053119894_0.11846781_-0.04316863_0.031510938_-0.07016717_0.069013745_0.08226261_-0.007940164_0.027110113_-0.07355086_-0.05556731_0.02656652_0.11540786_-0.00594475_0.021553325_0.006869162,TRAIN-SEEN
35200,11/3/2019 22:19,38.89419613,-92.29442641,25.590552,3.802798,88.04101332,18,14.415,5.2120702,88.04101332,73,25.590552,P-GPS,,38.42475621,-92.12756257,21.981628,0,0.02002628,16,0,0,0.02002628,71,21.981628,P-GPS,,38.89450253,-92.29438899,70.209976,0,9.416502926,19,14.117,1.7448132,10.28038091,95,70.209976,P-GPS,,36,36,6,0.750341442,TRUE,TEST,SEEN,0.035921667_0.22084029_-0.044211365_-0.12822068_0.018840421_0.10780999_0.0039090035_-0.09655002_0.089751035_-0.05560135_0.090155914_-0.07740559_-0.07338702_0.05004117_0.03352171_-0.06798919_-0.015316663_-0.049990054_-0.02388072_-0.15847987_-0.044815492_0.22239244_-0.08326474_-0.058790572_0.027681503_-0.0832836_0.091919586_0.1595449_0.14209697_0.08674756_0.05103938_-0.17377429_-0.057904568_-0.09187153_0.055582635_0.05869957_0.0046344893_-0.11715242_0.09344609_0.20204052_-0.035811078_0.08116664_-0.07402923_0.07160953_0.019200252_0.12751631_-0.054656696_0.03786979_-0.006936602_-0.050523877_-0.06810588_0.24961716_-0.07317414_-0.04196318_-0.15239377_0.011925658_-0.101045705_0.13220857_-0.15298839_0.111939386_-0.09531066_0.0037999288_0.17161538_-0.017870106_-0.06695659_-0.10289525_0.09392612_0.045148168_-0.0021549058_0.12289115_0.16471176_0.03697811_0.015457484_-0.043122042_0.045200672_0.025424875_-0.09003617_-0.014668112_-0.10109569_-0.009501967_0.11823171_0.09692546_0.0484527_0.09433949_-0.0108873835_0.024279078_-0.033892304_-0.11747769_-0.092287675_0.035602015_0.023689069_-0.12299572_-0.042410333_0.050149452_0.09829411_-0.13374795_-0.022924565_-0.11861752_0.021483516_0.05315153_-0.0668213_0.07965921_-0.02058129_-0.020501899_-0.14780538_0.08365497_0.02048616_0.006639799_-0.011050442_0.014708657_0.18482748_-0.09547137_-0.04143872_0.14666365_-0.042987_0.046802726_-0.06789164_0.08131737_0.049435146_0.0052132336_0.024993084_-0.07157657_-0.02627229_0.027515698_0.0624677_-0.004721308_-0.010728415_-0.0044334405,TEST-SEEN
35300,11/3/2019 22:19,38.89419452,-92.2944266,25.590552,4.026492,88.62861176,18,14.415,5.2120702,88.62861176,73,25.590552,P-GPS,,38.42475626,-92.12756256,21.981628,0,0.037749017,16,0,0,0.037749017,71,21.981628,P-GPS,,38.89450254,-92.29438899,70.209976,0,9.41866828,19,14.117,1.7448132,10.28038091,95,70.209976,P-GPS,,37,37,6,0.561166894,TRUE,TEST,SEEN,0.018815994_0.14411871_0.05678351_-0.09123318_0.019688696_0.08493271_0.03208644_-0.07047658_-0.009009184_-0.034222677_0.09453152_-0.032505173_-0.086318776_0.046263736_0.032362107_-0.056277525_-0.050305568_0.022593776_0.027855467_-0.15948956_0.008970119_0.22557288_-0.09456575_-0.027488712_0.01617236_-0.021910137_0.04459343_0.10288381_0.1336361_0.07478341_-0.014925436_-0.2544859_-0.08352989_-0.12690257_0.099317364_0.02700513_-0.07302712_-0.11754933_0.08053935_0.21430252_-0.046259902_0.16195144_-0.08863079_0.08950257_-0.019875327_0.087297186_-0.026373602_-0.06318585_-0.010772005_-0.082857884_-0.0077525848_0.18335503_-0.11101422_-0.015365184_-0.10768304_0.03181227_-0.04062727_0.16335095_-0.12702987_0.1479851_-0.037643768_-0.015254601_0.15365702_0.031321403_0.013440846_-0.15461937_0.08102479_-0.0062172166_0.036333002_0.14496803_0.21447359_0.09362958_0.07772888_-0.04215928_0.0038595996_0.033983495_-0.14919129_0.007573937_-0.06658878_-0.0390369_0.09842934_0.10539562_0.08729181_0.10419073_-0.040299922_-0.021213992_0.03368819_-0.09809937_-0.11193128_-0.010252213_-0.016401483_-0.058718964_-0.032734048_0.014569525_0.069200546_-0.15176487_-0.0006835169_-0.096224904_0.020939862_0.08827329_-0.08458107_0.12765987_0.008067308_-0.081475966_-0.10584974_0.07081084_0.0750694_-0.037593562_0.0053566117_0.007828023_0.17840202_-0.1276138_-0.014465547_0.0914562_-0.02608259_0.09458209_-0.041862965_0.06791694_-0.045222595_-0.057108738_-0.019524902_-0.08198718_-0.060321417_-0.041690085_0.04967194_0.085850835_0.0012989327_0.049748566,TEST-SEEN
35400,11/3/2019 22:19,38.8941927,-92.2944267,25.262468,4.026492,89.29593462,18,14.415,5.2120702,89.29593462,73,25.262468,P-GPS,,38.4247563,-92.12756255,21.653544,0,0.053317587,16,0,0,0.053317587,71,21.653544,P-GPS,,38.89450256,-92.29438898,70.209976,0,9.421588228,19,14.117,1.7448132,10.28038091,95,70.209976,P-GPS,,38,38,6,0.775669415,TRUE,TRAIN,SEEN,0.0068504894_0.17543913_-0.0733164_-0.11515434_0.06790425_0.11489177_-0.0119183855_-0.15285876_0.01582896_-0.023991842_0.05236384_-0.0373828_-0.03240895_0.03353794_0.071884066_-0.029691147_-0.08286075_-0.035334136_0.025623038_-0.15598994_-0.058436144_0.247144_-0.031894848_-0.06673579_0.07153482_-0.012203816_0.0767844_0.089043565_0.14421831_0.13492051_0.055894088_-0.07962717_-0.053832836_-0.099151656_0.043709997_0.021708151_-0.033514354_-0.1638816_0.13349442_0.20528166_0.035749443_0.027595842_-0.02993767_0.13120677_-0.0796806_0.08470278_0.00518793_0.051020637_0.06395712_-0.061297197_0.017396422_0.20613438_-0.020050082_-0.054210622_-0.12613904_0.012728873_-0.01275743_0.13090199_-0.06962927_0.10576391_-0.1293331_-0.020003185_0.14208107_0.06170267_-0.085527584_-0.0983778_0.07888713_0.010157962_0.04105946_0.07569065_0.102961645_0.097019285_0.01741679_-0.02134548_0.061964113_0.0116339745_-0.14621574_-0.07909662_-0.12326609_0.10044583_0.20860559_0.08995803_0.11310322_0.14909911_0.0102626085_6.580752e-05_0.020837637_-0.100091815_-0.12456968_-0.015841067_-0.019073626_-0.022859503_-0.075447254_0.020648325_-0.0005306965_-0.14980692_-0.05724545_-0.0039812014_0.050853975_-0.013759106_-0.039557617_0.08404869_0.08571239_0.016620016_-0.15047608_0.030304441_-0.014503084_0.07177698_0.03475664_0.06384844_0.20858143_-0.080312334_-0.08962422_0.09546217_-0.11547446_0.05464338_-0.025901644_0.08740361_0.013538647_0.031617533_0.10862322_-0.08526221_-0.04168996_-0.050697908_-0.06407788_0.011447894_-0.037698384_0.11067817,TRAIN-SEEN
35500,11/3/2019 22:19,38.89419091,-92.29442697,25.262468,4.250186,89.94980603,18,14.415,5.2120702,89.94980603,73,25.262468,P-GPS,,38.4247563,-92.12756255,21.653544,0,0.05495571,16,0,0,0.05495571,71,21.653544,P-GPS,,38.89450257,-92.29438887,70.209976,0,9.400558044,19,14.117,1.7448132,10.28038091,95,70.209976,P-GPS,,39,39,2,0.767280619,TRUE,TRAIN,SEEN,0.1034022_0.11050645_-0.1511622_-0.00075292547_0.07304875_0.1276632_0.06653274_0.049183093_-0.06561367_-0.029572152_0.014216456_0.08258646_0.04773458_-0.15481326_0.00754373_-0.019556968_4.842845e-05_-0.099649616_-0.01419015_0.07451286_-0.049991757_0.081696_0.0033373295_0.036874715_-0.00088077295_-0.16168812_0.07453996_-0.0012057992_-0.013600891_0.1487923_-0.054967426_-0.036518794_0.007108947_0.092109114_-0.08698116_-0.07223854_0.06617921_-0.21672902_-0.06825104_0.07049624_0.067212194_-0.15285125_0.14901355_0.106204785_-0.11366069_0.01093663_0.09008283_0.028374638_-0.031387758_0.2084469_0.1418318_-0.039818786_-0.084364645_-0.0068413136_0.015284678_-0.0048257867_-0.12209618_-0.009668128_0.018647842_0.10099376_-0.086739644_-0.029453397_0.018292649_-0.14430295_-0.0097826645_-0.16604188_-0.028329328_-0.13199708_-0.14574105_-0.09773194_-0.06172618_0.03687993_-0.0582437_-0.0031516168_0.02452082_0.09862845_0.129998_0.043237094_-0.038862694_0.14637288_0.08006336_-0.1631485_0.05707306_0.1477417_0.03903626_0.106628105_-0.034247674_-0.122822374_-0.023021216_0.108133756_-0.05661185_-0.12935862_-0.1922593_0.051973242_-0.06833173_-0.0053543164_0.0030552158_-0.019123554_-0.018642798_-0.036755655_-0.022435797_0.07792739_0.054754265_0.08538814_-0.14593127_-0.0062565776_-0.06637896_0.19460331_-0.15381452_0.055033922_0.06512203_-0.051332146_0.01117827_0.023303894_-0.16737351_-0.025795326_0.07044938_0.11163432_-0.0053751483_0.17967783_0.02281901_-0.03838227_0.0024903226_0.059217457_0.03686629_-0.06087613_-0.004531896_-0.033515286,TRAIN-SEEN
35600,11/3/2019 22:19,38.894189,-92.29442719,25.262468,4.47388,90.6515777,18,14.415,5.2120702,90.6515777,73,25.262468,P-GPS,,38.42475624,-92.12756257,21.981628,0,0.03219321,16,14.873,0,0.05495571,71,21.981628,P-GPS,Setting new Return-To-Home altitude to 30m (98 ft). Data Recorder File Index is 75. Setting new Maximum Flight Altitude to 120m (394 ft),38.89450255,-92.29438883,70.209976,0,9.387565917,19,14.117,1.7448132,10.28038091,95,70.209976,P-GPS,,40,40,2,0.801793648,TRUE,TRAIN,SEEN,0.13292809_0.10223591_-0.11174279_0.06165586_0.049790014_0.14731865_0.09361147_0.020415645_-0.094575524_0.012206997_0.09038986_0.08126554_0.08319356_-0.1759256_0.027666692_0.0073297247_-0.023572149_-0.03920902_-0.07527126_0.08650909_-0.021188479_0.06473061_0.05104976_0.054822147_-0.027080169_-0.16242044_-0.0009169777_-0.07968986_-0.010823373_0.14558683_-0.0829552_0.037084848_-0.03448874_0.115153216_-0.092707165_-0.06859246_0.009260292_-0.13846275_-0.07844455_0.109100066_0.04113578_-0.15084556_0.03268866_0.07606239_-0.15297106_0.0005233921_0.080717556_0.034089796_-0.05105811_0.20465927_0.20743151_-0.0021986982_-0.14016043_-0.0044519342_-0.0031885644_-0.031833004_-0.06492111_-0.024444541_0.044832196_0.14250538_-0.09456705_-0.04719443_0.017242232_-0.14546624_0.024257867_-0.19646542_-0.0073610535_-0.09395815_-0.14130248_-0.027222395_-0.048166376_0.08015797_-0.028729996_0.04958986_-0.0024260595_0.0422683_0.08529346_0.030466652_-0.060355645_0.17532152_0.086222336_-0.18681644_0.02384845_0.073741294_-0.006863752_0.114270285_0.0034123792_-0.16636147_-0.071960695_0.0811839_-0.05944266_-0.11849181_-0.17952476_0.037425216_-0.1258403_-0.02791148_-0.0070433877_-0.048401907_0.016098564_-0.017590284_0.014959795_0.10256397_0.05047174_0.10995832_-0.07198011_-0.036744904_-0.05647136_0.22397943_-0.07233956_0.043597806_0.0268281_0.012142496_0.009221738_-0.016723908_-0.12880445_0.0030861192_0.050998718_0.10461397_-0.0119439075_0.18882082_0.005353353_-0.03557162_-0.016784515_0.104056895_0.072535835_-0.035188146_0.014363177_-0.013401259,TRAIN-SEEN
35700,11/3/2019 22:19,38.89418711,-92.29442734,25.262468,4.697574,91.33989794,18,14.415,5.2120702,91.33989794,73,25.262468,P-GPS,,38.42475628,-92.12756261,21.981628,0,0.043621392,16,14.873,0,0.05495571,71,21.981628,P-GPS,,38.89450256,-92.29438871,70.209976,0,9.363976678,19,14.117,1.7448132,10.28038091,95,70.209976,P-GPS,,41,41,2,0.814848212,TRUE,TRAIN,SEEN,0.06383257_0.16011363_-0.07936832_0.102788135_-0.018556882_0.112585336_0.056853294_0.06592882_0.006255008_-0.011748186_0.11790359_0.076518334_0.038453415_-0.20859662_-0.06363054_-0.07316841_-0.004171728_0.09828687_-0.078546025_0.054259196_0.07601017_-0.0427069_0.017299052_0.12708196_0.019852085_-0.23446298_-0.009443187_-0.1191992_-0.05922247_0.13959129_-0.055285297_-0.08196872_0.054020487_0.11929372_-0.07261336_-0.09785627_0.020159958_-0.10601725_-0.12960969_0.06976779_0.022695592_-0.11465727_0.047988873_0.100265056_-0.115689844_-0.11307762_0.12631209_-0.082771964_-0.09056043_0.16766354_0.17207354_-0.037931822_-0.11787531_0.020956526_-0.010075287_0.06919811_-0.040667508_-0.06805684_0.044638727_0.007778722_-0.044243395_-0.071166374_0.017947225_-0.16915534_0.01993497_-0.1964246_0.0146802105_-0.15535866_-0.14345609_0.031404484_-0.023954205_0.010636864_-0.040875994_-0.007644153_-0.015079707_0.042013578_0.04288128_0.087649144_-0.07930571_0.06614137_-0.14601237_-0.06285708_0.010564839_0.06787779_-0.0016639915_0.19513674_-0.005323886_-0.17084447_-0.009109474_0.036146548_-0.094786406_-0.20147902_-0.10782317_-0.07043776_-0.039173722_-0.07299109_-0.073629215_-0.020768456_-0.023759099_0.02322797_-0.031325933_0.07969645_0.069235876_0.116098434_-0.014204611_-0.017279826_-0.008756133_0.15844376_-0.15166275_-0.0049920776_-0.041459616_-0.04303109_0.007493894_-0.04314506_-0.08962965_-0.013362025_0.048673134_-0.02565722_0.07323223_0.13473654_-0.001623467_0.02252923_-0.10076467_0.108607166_0.109692164_-0.042887952_0.054566875_0.004479606,TRAIN-SEEN
35900,11/3/2019 22:19,38.89418295,-92.29442768,25.262468,4.921268,92.86187961,18,14.415,5.2120702,92.86187961,73,25.262468,P-GPS,,38.42475631,-92.12756266,21.653544,0,0.055286091,16,14.873,0,0.055286091,71,21.653544,P-GPS,Obstacle Avoidance Disabled. Fly with caution.,38.89450257,-92.2943887,70.209976,0,9.362828384,19,14.117,1.7448132,10.28038091,95,70.209976,P-GPS,,42,42,2,0.819422148,TRUE,TRAIN,SEEN,0.13988045_0.03592543_-0.19296497_0.034427263_0.111359276_0.17556499_0.037673283_0.070917085_-0.01773286_0.048066854_0.10026288_0.11662795_0.093893774_-0.13096736_0.020212023_0.057765204_0.10776739_0.027802555_-0.068009555_0.06134815_0.04943709_0.038305104_0.07316154_0.12086858_0.0239694_-0.1709053_0.07595975_-0.10652024_-0.038611643_0.12515175_-0.008191222_0.06770277_0.020746214_0.1388382_-0.12920845_-0.033558633_0.023175675_-0.15776876_-0.04663188_0.07965132_0.04114235_-0.10259496_0.037886553_0.065090396_-0.12382308_-0.098891474_0.04503887_0.028709877_-0.0022829226_0.14915428_0.21827355_-0.050789893_-0.1269999_-0.03829684_-0.0283111_0.026634429_-0.04436629_-0.0015849499_0.03608132_0.09884934_-0.10742344_-0.091017924_0.016258264_-0.21371841_0.012317979_-0.19601008_-0.06172359_0.017412728_-0.11898865_0.02091889_-0.04648687_0.086899936_-0.10812463_-0.09371038_-0.04582865_0.06758148_0.120014794_0.10412583_-0.11480795_0.103545815_-0.01659925_-0.09467598_0.061326608_0.06805005_-0.022177054_0.13000678_0.042409904_-0.120004244_-0.03584332_0.03904991_-0.09671077_-0.14274552_-0.21261425_0.08286623_-0.028115815_0.020721542_-0.06338959_-0.0533879_-0.06504854_-0.012133765_0.03818678_0.010609737_0.006102308_0.14936624_-0.044107962_-0.042877506_-0.11531716_0.079951644_-0.124560244_-0.010976225_-0.05595447_0.02686949_0.05488419_0.018539434_-0.04668452_-0.014551546_0.000246298_0.034460187_-0.003514695_0.22423378_0.0414458_-0.005956975_-0.008905988_0.108631104_0.049444854_-0.043384086_-0.015604413_-0.009396756,TRAIN-SEEN
36000,11/3/2019 22:19,38.89418079,-92.29442786,25.262468,4.921268,93.65190588,18,14.415,5.2120702,93.65190588,73,25.262468,P-GPS,,38.4247563,-92.12756272,21.981628,0,0.05915617,16,14.873,0,0.05915617,71,21.981628,P-GPS,,38.89450253,-92.29438856,70.209976,0,9.323786388,19,14.117,1.7448132,10.28038091,95,70.209976,P-GPS,,43,43,2,0.876729528,TRUE,TEST,SEEN,0.16065492_0.14021471_-0.13993265_0.08482464_0.069037884_0.13757859_0.09416339_0.06473026_-0.057042446_-0.020702729_0.08426408_0.082173556_0.043140005_-0.15829375_-0.025289422_-0.036088485_0.10502825_0.000144279_-0.07491248_0.098954536_0.004645803_0.03166073_0.056477603_0.112752_-1.0070509e-06_-0.23716302_0.018949002_-0.05383367_-0.0081971_0.12874803_-0.06828751_-0.037803784_0.008412128_0.09750982_-0.10702473_-0.09845636_0.013198412_-0.088302925_-0.14574443_0.06915165_0.009447646_-0.049933273_0.026261548_0.08155986_-0.1544316_-0.0047843084_0.0729695_-0.016112095_-0.06788466_0.21321249_0.19594242_0.03143911_-0.12548931_-0.031707425_-0.020054653_-0.017613297_-0.068188414_-0.0009436151_0.06687423_0.058186788_-0.09742692_-0.044090282_0.03271527_-0.2122352_0.012553759_-0.20901576_-0.0073243915_-0.08977357_-0.18255638_0.011319518_0.010477862_0.0514403_-0.02868603_0.008891705_-0.032741215_0.07372244_0.08973098_0.06115053_-0.056619994_0.12039863_-0.04560277_-0.11997309_0.012726108_0.041376986_0.060541894_0.09567829_-0.035997562_-0.15418349_-0.03372711_0.064424746_-0.07703044_-0.1564542_-0.17222627_0.006128998_-0.00021347792_-0.06773573_0.036406193_-0.04751259_-0.058139324_-0.025384529_-0.011945905_0.11882368_0.067331_0.12329211_-0.15803725_-0.020336423_-0.03781899_0.15350363_-0.06366717_0.00079466426_0.059501257_0.0143526085_0.035507593_0.028145865_-0.095166706_-0.020624412_0.004927992_0.030999612_0.028509345_0.18328865_-0.050067388_0.00711957_-0.055747386_0.107801475_0.11801255_-0.051435515_0.043068048_-0.064878196,TEST-SEEN
36100,11/3/2019 22:19,38.89417863,-92.29442805,25.262468,5.368656,94.44291641,18,14.415,5.368656,94.44291641,73,25.262468,P-GPS,,38.42475623,-92.12756293,21.653544,0,0.095948166,16,14.873,0,0.095948166,71,21.653544,P-GPS,,38.89450253,-92.29438855,70.209976,0,9.322145968,19,14.117,1.7448132,10.28038091,95,70.209976,P-GPS,,44,44,2,0.824232646,TRUE,TRAIN,SEEN,0.13288215_0.2247107_-0.07599659_0.088516235_-0.027682323_0.14365661_0.086660594_0.018242734_-0.010463275_0.0021851126_0.14382964_0.013234437_0.057277527_-0.19081974_-0.014647818_-0.032522693_0.02139009_0.027059525_-0.113781415_0.049642775_0.025186427_0.023193019_-0.020184845_0.10898692_0.00076199987_-0.24761127_-0.03626754_-0.04535763_0.007818169_0.16164054_-0.04210401_-0.03733652_-0.024903897_0.122866236_-0.06393545_-0.0826331_0.03608052_-0.103761785_-0.06082693_0.102188095_-0.030195747_-0.12352613_0.031494178_0.04293444_-0.047728043_-0.061650205_0.07654627_0.0035156289_-0.10462776_0.18234937_0.1709449_0.034625757_-0.13464615_-0.0049573253_-0.058685936_0.0153894685_-0.101524174_-0.031965137_0.03415818_0.053716056_-0.08211174_-0.040672604_0.042832464_-0.21666992_-0.019217035_-0.146989_0.04927489_-0.14209081_-0.19897683_-0.020922495_-0.018760167_0.019780742_-0.041052047_0.043628246_-0.017398221_-0.00959469_0.10133846_0.037817117_-0.059030928_0.13007286_-0.00198525_-0.12693843_-0.017654862_0.028761307_0.020768195_0.16442807_-0.06746459_-0.22612293_-0.013910718_0.09079273_-0.056144744_-0.1993957_-0.11728143_0.014860774_-0.041792333_-0.051259242_-0.037765943_-0.07639108_-0.013889698_0.027458277_-0.012057966_0.10653245_0.019428452_0.1247865_-0.07228445_0.015634263_0.012355731_0.16141762_-0.0846395_0.02808087_0.012368968_-0.012962795_0.006570359_0.014037312_-0.09051411_-0.01378581_0.02346574_0.08160206_0.039654262_0.11733162_-0.026617002_-0.015905516_-0.038857106_0.14370714_0.13713084_-0.05478945_0.047112234_-0.06824288,TRAIN-SEEN
36200,11/3/2019 22:19,38.8941762,-92.29442816,25.262468,5.368656,95.32710279,18,14.415,5.368656,95.32710279,73,25.262468,P-GPS,,38.42475619,-92.1275629,21.653544,0,0.083269032,16,14.873,0,0.095948166,71,21.653544,P-GPS,,38.89450254,-92.29438833,70.209976,0,9.277067226,19,14.117,1.7448132,10.28038091,95,70.209976,P-GPS,,45,45,2,0.803775646,TRUE,TEST,SEEN,0.06903198_0.21842448_-0.010427006_0.110255376_-0.064792395_0.09972177_0.09666117_0.023700759_-0.00026766147_-0.029533766_0.1171075_-0.005462935_0.02838067_-0.20931041_-0.020813847_-0.12203616_-0.060316265_0.035983235_-0.08054308_0.05893292_0.039734263_-0.04483511_-0.054721307_0.1302829_0.047570202_-0.26519442_-0.06782543_-0.039578784_0.0024518468_0.14849779_-0.016043684_-0.13216469_-0.030886477_0.10198632_-0.013537111_-0.08871812_-0.0015267414_-0.12026157_-0.087056555_0.038002506_0.0023904727_-0.15176992_0.054519847_0.09410645_-0.048773244_-0.10207021_0.078697406_0.003092947_-0.092676975_0.1707334_0.095975906_0.011598829_-0.08879684_-0.015359549_-0.023167646_0.038304843_-0.15282756_-0.024201294_0.02193506_-0.0051759025_-0.06153344_-0.022353057_0.04719535_-0.14269646_-0.027958589_-0.10081322_0.067790374_-0.2424151_-0.2077204_-0.053413097_-0.03464199_0.00917312_-0.01281346_0.065782756_-0.010768604_-0.03940122_0.08398195_0.017536666_0.0054073757_0.15972021_-0.051297195_-0.1430369_-0.023872484_0.0327827_0.03297967_0.14397977_-0.07400373_-0.18260936_0.0314758_0.07816809_-0.014555161_-0.17519112_-0.044403374_-0.04488225_-0.07358837_-0.10285077_-0.05778587_-0.056367394_0.002211651_0.0054284493_-0.025772734_0.12167338_0.043112423_0.05994747_-0.056462783_0.055963106_0.06686003_0.18756261_-0.060717165_0.053492777_0.032531183_-0.033675868_-0.038638134_-0.0005382077_-0.1106416_-0.0056918375_0.0838877_0.08606978_0.07119933_0.096857615_-0.04160053_-0.03098882_-0.10412006_0.1255166_0.088766165_-0.04107991_0.06750932_-0.0457724,TEST-SEEN
36300,11/3/2019 22:19,38.89417394,-92.29442829,25.262468,5.59235,96.15354638,18,14.415,5.59235,96.15354638,73,25.262468,P-GPS,,38.42475615,-92.12756287,21.653544,0,0.074291997,16,14.873,0,0.095948166,71,21.653544,P-GPS,,38.89450248,-92.29438833,70.209976,0,9.264206333,19,14.094,1.7448132,10.28038091,95,70.209976,P-GPS,,46,46,2,0.851601058,TRUE,TRAIN,SEEN,0.099968724_0.15922052_-0.01976416_0.122693695_-0.029419573_0.10607635_0.15202792_0.03933178_-0.07375952_0.061443724_0.15471813_0.038428504_0.10306668_-0.108708285_-0.0048630554_-0.1274264_0.03343404_0.10922444_-0.103227325_0.059705116_0.049770087_-0.12398663_-0.0358064_0.15144713_0.05621415_-0.21913098_-0.12095476_-0.033499505_-0.005628173_0.13601251_-0.04424755_0.008224559_-0.05623945_0.13242011_-0.1011131_-0.106496185_-0.056903582_-0.04439767_-0.05174676_0.037076138_0.026518844_-0.11635199_0.011623573_0.038729135_-0.112398095_-0.18179551_0.041284326_-0.0135510685_-0.069349654_0.1126677_0.1724055_0.030121643_-0.15355717_0.001585385_-0.01773245_0.037197556_-0.10425469_0.03280518_0.059759263_0.008445968_-0.07021839_-0.032784246_0.021898378_-0.16509376_-0.024980122_-0.026956266_0.047899555_-0.1451649_-0.21993972_-0.011168368_-0.004358472_0.06571064_0.0007538716_0.103660196_-0.029188832_-0.03748687_0.09880252_-0.015960623_-0.0051259534_0.09918808_-0.13074794_-0.1373619_0.038027566_-0.021571876_-0.010151351_0.10905652_0.017732734_-0.1707356_0.07160414_0.009340837_-0.061449204_-0.18542755_-0.0011772409_-0.059056714_-0.074966595_-0.1341283_-0.05322252_-0.057697725_-0.021547582_0.0144493915_-0.015435872_0.14222062_0.07551652_0.16833544_-0.02517767_0.06078724_0.00076575216_0.17613162_-0.015855337_-0.039871026_-0.020819686_0.03237266_-0.052602515_0.021183012_-0.048391126_-0.039141074_0.083690025_0.043614455_0.09794905_0.12663072_-0.03491829_-0.057815284_-0.11637584_0.12227553_0.08397467_-0.024152897_0.04189117_-0.015184986,TRAIN-SEEN
36400,11/3/2019 22:19,38.89417146,-92.29442839,25.262468,5.816044,97.05708972,18,14.415,5.816044,97.05708972,73,25.262468,P-GPS,,38.42475611,-92.12756286,21.653544,0,0.073323821,16,14.873,0,0.095948166,71,21.653544,P-GPS,,38.89450239,-92.29438813,70.209976,0,9.199934678,19,14.094,1.7448132,10.28038091,95,70.209976,P-GPS,,47,47,2,0.841821518,TRUE,TRAIN,SEEN,0.08830345_0.15934746_-0.13145675_0.017016025_0.023505066_0.176299_-0.013721217_0.058566358_0.011693548_0.049038924_0.1027492_0.08330918_0.048574492_-0.15908214_0.0043878574_-0.017540112_0.037280653_-0.048767548_-0.06780525_0.092391655_-0.07954988_0.0922359_0.060935803_0.07276017_-0.039834157_-0.14985047_0.0913091_0.02097236_-0.012683107_0.058777884_-0.008150615_-0.04011009_0.02802195_0.11295229_-0.13189015_-0.016176801_0.069589786_-0.100226894_-0.071984924_0.16762257_0.010606583_-0.104564466_0.010631537_0.036160905_-0.13005678_-0.13101166_0.059040297_0.036798943_0.023503715_0.29274285_0.19583894_0.067870714_-0.18897569_0.023825351_-0.015740678_-0.016352668_-0.0648654_-0.053648926_0.026214542_0.046330452_-0.17264873_-0.07697851_0.05229477_-0.21984704_-0.03742304_-0.19188705_0.05355932_-0.06329465_-0.14655235_0.055228624_-0.01775996_0.08213986_-0.025936091_0.111242115_0.03064111_0.0010601571_0.09422184_0.074079_-0.06548881_0.09398847_0.032255817_-0.09337066_0.09675296_0.11094084_0.06542428_0.08232023_-0.019426282_-0.08166013_0.067502506_0.05888266_-0.09848633_-0.15932134_-0.12073679_0.07413953_0.010889785_-0.09016397_-0.013447065_-0.038938757_-0.08853789_-0.02546092_-0.03873025_0.07797498_0.0064705866_0.10864025_-0.07008252_0.02513559_-0.046275374_0.054188844_-0.07594969_0.04405785_-0.00093592016_0.060925025_0.07997917_0.10592057_-0.11580713_-0.080049686_0.09427028_0.051776983_0.036832243_0.16228351_0.050639525_-0.014500411_0.04755744_0.07356328_0.07032235_-0.071174964_0.067562275_0.03362207,TRAIN-SEEN
36500,11/3/2019 22:19,38.89416908,-92.2944286,25.262468,5.816044,97.92848082,18,14.415,5.816044,97.92848082,73,25.262468,P-GPS,,38.42475598,-92.12756273,21.653544,0,0.075236879,16,14.873,0,0.095948166,71,21.653544,P-GPS,,38.89450241,-92.29438815,70.209976,0,9.206824442,19,14.094,1.7448132,10.28038091,95,70.209976,P-GPS,,48,48,2,0.772287684,TRUE,TEST,SEEN,0.06075921_0.16313213_-0.16672562_-0.054321256_0.0540953_0.21149333_-0.016671937_0.068721555_0.009412036_0.029875835_0.04312244_0.052277222_0.08245738_-0.16983292_0.031783096_0.008658938_-0.017530434_-0.09525408_-0.06956513_0.062874176_-0.047452617_0.1054173_0.06007023_0.04117632_-0.03171314_-0.15619633_0.07928321_-0.0215852_0.0026575988_0.084365636_0.028264485_-0.0369346_0.011866788_0.10659586_-0.10708905_-0.007769121_0.09668782_-0.1449389_-0.048372015_0.15909046_0.038489103_-0.14394517_0.06572904_0.07166364_-0.11056951_-0.08972723_0.09411029_0.07430883_0.00450425_0.27015105_0.14408423_-0.0015490495_-0.14495619_0.018464567_-0.014852395_-0.0016742396_-0.065174654_-0.033241734_0.017437436_0.019040044_-0.1672672_-0.042362537_0.05551566_-0.20388396_-0.043030728_-0.18526918_0.035878133_-0.039705895_-0.11059467_-0.0132858595_-0.041379433_0.08609764_-0.07056847_0.03929499_0.055141132_0.042384136_0.07013065_0.06946663_-0.056559395_0.13129969_0.085519336_-0.09170174_0.09142398_0.16398902_0.034198813_0.12468492_-0.009722114_-0.07396317_0.043915775_0.072733924_-0.073143445_-0.16187577_-0.15872756_0.074663244_-0.04077018_-0.047530778_-0.039925307_0.008655148_-0.089397706_-0.021276336_-0.01533632_0.032367095_-0.0027907144_0.10543021_-0.109385066_0.017884739_-0.10953966_0.09976285_-0.123753086_0.06448009_0.018644959_0.029744377_0.03387904_0.077479966_-0.14644228_-0.025469413_0.055460025_0.075245515_0.0012757527_0.18507819_0.079329595_-0.02305039_0.06340733_0.07612963_0.0016933527_-0.07940585_0.00035326715_0.03301732,TEST-SEEN
36600,11/3/2019 22:19,38.89416656,-92.29442881,25.262468,6.039738,98.8517092,18,14.415,6.039738,98.8517092,73,25.262468,P-GPS,,38.42475589,-92.12756274,21.653544,0,0.103293967,16,14.873,0,0.103293967,71,21.653544,P-GPS,,38.89450237,-92.29438805,70.209976,0,9.177067223,19,14.094,1.7448132,10.28038091,95,70.209976,P-GPS,,49,49,2,0.776506399,TRUE,TRAIN,SEEN,0.1492916_0.13891523_-0.08896541_0.09755168_-0.009419408_0.12377727_0.09819523_0.08109605_-0.019121336_-0.010689783_0.13070977_0.004153312_0.07661865_-0.16592321_0.010780802_-0.032851156_0.0703873_0.07067415_-0.098832496_0.053850234_0.060905173_-0.0045277257_0.012528155_0.10345843_-0.017954065_-0.27061847_-0.05456021_-0.11539811_-0.06146627_0.13264845_-0.06549041_-0.02320143_0.012698949_0.14654107_-0.06066374_-0.07293095_0.0694235_-0.09856628_-0.11469343_0.061772928_-0.0063359695_-0.09213028_0.03504735_0.039847586_-0.07866663_-0.04076291_0.0804605_-0.02998683_-0.10686917_0.1642322_0.15620126_-0.06586658_-0.11979226_0.025448157_-0.04775422_0.0309756_-0.05291961_-0.07672052_0.06959638_0.055958655_-0.033744503_-0.030794613_-0.031158848_-0.22825554_0.014425571_-0.16161679_0.024618365_-0.11048295_-0.13486518_-0.021257302_-0.025706857_-0.005739537_-0.044214554_-0.023952927_-0.045686744_0.025392884_0.08320494_0.07954334_-0.06773133_0.059600048_-0.06694372_-0.10431623_-0.063861094_-0.003065947_0.0020792417_0.22700062_-0.041156527_-0.22891241_-0.055044174_0.08229642_-0.034263957_-0.19200502_-0.1312124_-0.054410603_-0.053261455_-0.01457497_-0.048294947_-0.06090413_-0.026562486_0.04972531_-0.00061396376_0.078004956_0.05943333_0.106376894_-0.036314815_-0.03303767_-0.018092612_0.14680164_-0.14246151_0.018480713_-0.04256317_-0.04266471_0.028006697_-0.058020473_-0.08311071_-0.009615335_0.024439631_-0.0032463472_0.012695313_0.1006559_-0.032727662_0.013745007_-0.051214512_0.19471781_0.14611563_-0.08821038_0.024482744_-0.06677091,TRAIN-SEEN
36700,11/3/2019 22:19,38.89416407,-92.29442893,25.262468,6.039738,99.75787721,18,14.415,6.039738,99.75787721,73,25.262468,P-GPS,,38.42475582,-92.12756274,21.653544,0,0.130929466,16,14.887,0,0.130929466,71,21.653544,P-GPS,,38.89450232,-92.29438795,70.209976,0,9.141831001,19,14.094,1.7448132,10.28038091,95,70.209976,P-GPS,,50,50,2,0.840119011,TRUE,TEST,SEEN,0.14849892_0.11526083_-0.098487705_0.07000232_0.06631096_0.11908163_0.079847544_0.08051247_-0.011474837_0.044235356_0.12876508_0.07841218_0.07701702_-0.16066258_-0.004547483_0.052272733_0.0932808_0.047984883_-0.14826725_0.10966752_0.02137531_0.038665045_0.08273311_0.05542586_-0.08112357_-0.21082623_-0.023711907_-0.06001804_-0.022234922_0.097703144_-0.08730234_0.05541235_0.03489935_0.14388978_-0.097876176_-0.07193135_0.06280084_-0.02900259_-0.10695246_0.08668921_-0.02829865_-0.057526853_0.0054946207_-0.020742917_-0.11652906_-0.06321518_0.035758767_-0.0022363318_-0.058922615_0.23710336_0.19774182_-0.015851097_-0.2007113_0.021212457_-0.041142296_-0.02407696_-0.028878756_-0.08981257_0.008733729_0.120482326_-0.08885145_-0.07936069_-0.0049293274_-0.24139458_0.05574844_-0.20010142_-0.037068486_-0.034218058_-0.17318864_0.032012884_-0.0032157674_0.03902993_-0.031398706_0.042730797_-0.060203396_0.035056736_0.13085939_0.073576875_-0.07795141_0.015477782_-0.009098801_-0.116778255_-0.016856773_0.045498602_0.022563133_0.13138063_-0.033354886_-0.13884683_0.0013120576_0.09875305_-0.066816375_-0.17365377_-0.18448257_0.04641798_0.012949324_-0.005046333_-0.032461602_-0.06345304_-0.07866025_0.04997654_0.021863606_0.045015913_-0.0023614035_0.116219416_-0.0030518582_-0.030497942_-0.023827078_0.086138874_-0.04262338_0.0014464825_-0.07447183_0.032522738_0.08287609_0.03941404_-0.045827728_-0.045268103_0.043419577_0.050247334_-0.0012791136_0.1625739_-0.031167358_0.042581674_0.013176433_0.16034128_0.15417176_-0.06940544_0.05293427_-0.06536202,TEST-SEEN
36800,11/3/2019 22:19,38.89416138,-92.29442913,25.262468,6.039738,100.741473,18,14.415,6.039738,100.741473,73,25.262468,P-GPS,,38.42475574,-92.12756274,21.981628,0,0.157126317,16,14.887,0,0.157126317,71,21.981628,P-GPS,,38.89450228,-92.29438796,70.209976,0,9.135892681,19,14.094,1.7448132,10.28038091,95,70.209976,P-GPS,,51,51,2,0.876924914,TRUE,TEST,SEEN,0.12935413_0.080985114_-0.09462933_0.11519843_0.0034753087_0.1070571_0.045190122_0.11891531_-0.06552522_0.08813502_0.13588381_0.078965925_0.07270723_-0.18491548_-0.0069148866_-0.0105665_0.09967636_0.08338871_-0.047159404_0.11226964_0.05493952_-0.038551174_0.054645617_0.15221266_0.005975928_-0.18429953_0.039849646_-0.12086156_-0.042918365_0.1110778_-0.09327251_-0.02909031_0.067623585_0.13578501_-0.10823174_-0.08952456_0.00185399_-0.06261383_-0.14306901_0.016542248_-0.030453512_-0.12637144_0.004819822_0.08396645_-0.12633355_-0.08805342_0.08619521_-0.03727022_-0.09160694_0.16718197_0.25989208_-0.01532167_-0.1385413_-0.011465556_0.011119171_0.026313115_-0.037125923_-0.10079523_0.09737778_0.020687662_-0.046731614_-0.12777074_-0.023268085_-0.17514591_0.03929942_-0.19835833_-0.03526312_-0.07524083_-0.14005983_0.023354504_-0.047974512_0.019252162_-0.06871506_-0.050313592_-0.05626075_0.02598558_0.10414251_0.13863294_-0.043729153_0.0933456_-0.111245155_-0.1344928_0.003119852_-0.0004894965_0.038137093_0.108813114_-0.0036533303_-0.13217473_0.04198278_0.06956531_-0.12448113_-0.13949353_-0.16400357_0.031731885_-0.057087738_-0.024293572_-0.012371224_-0.053771406_-0.032691445_-0.033289064_0.034494188_0.10865269_0.044843476_0.09189235_-0.02662507_-0.045116574_-0.022163196_0.090853825_-0.06380654_-0.039225772_-0.060879357_0.043361396_0.04719724_-0.039228883_-0.02147393_-0.042566523_0.02551327_-0.040909182_0.018035477_0.1550216_-0.030669639_0.00058821845_-0.041435014_0.12003071_0.15095878_-0.03630456_0.10726276_-0.032395624,TEST-SEEN
36900,11/3/2019 22:19,38.89415887,-92.29442925,24.934384,6.039738,101.6601082,18,14.415,6.039738,101.6601082,73,24.934384,P-GPS,,38.42475557,-92.12756275,21.981628,0,0.218921267,16,14.887,0,0.218921267,71,21.981628,P-GPS,,38.89450222,-92.2943878,70.209976,0,9.088025225,19,14.094,1.7448132,10.28038091,95,70.209976,P-GPS,,52,52,2,0.657555737,TRUE,TEST,SEEN,0.01873902_0.22654518_0.0031836026_-0.0048945462_-0.033388693_0.054911993_0.14489579_0.07467808_-0.10271998_0.1216253_0.10254013_-0.02989517_0.10669464_-0.036086533_-0.028067729_-0.036253948_-0.014664363_0.06434852_-0.11595928_-0.023652228_0.116378225_-0.1842418_0.015722295_0.03695649_0.0685961_-0.13270535_-0.06784658_-0.013722116_0.12716055_0.10422248_-0.069346696_-0.013168871_0.0042468165_0.053573728_-0.08614474_-0.16533846_-0.09614286_0.14688696_-0.013825376_-0.0059261764_-0.03777198_-0.112846926_0.01809132_0.0451899_-0.07207157_-0.04577955_0.04331944_-0.06686042_-0.21824172_-0.056452975_0.08444286_0.11408588_-0.11997067_-0.011208159_-0.02954621_0.058187038_-0.017528968_0.08216503_0.0065686163_-0.0827143_-0.05800047_-0.07411431_0.07709049_-0.062003125_0.04624119_0.09228855_-0.07358981_0.006121678_-0.18503194_0.0063807922_0.025750453_0.029210696_-0.06859125_-8.6316e-05_0.07446663_0.03019986_0.04208703_-0.026854156_0.018501433_0.04325956_-0.18722877_-0.14761734_0.05991857_0.008336595_-0.07517374_0.040020723_0.027113268_-0.084228374_0.12499991_0.005188085_-0.07989603_-0.19035211_-0.038709786_-0.027785277_-0.031916305_-0.108064316_-0.007495815_0.053010315_0.025148466_0.005308141_0.017425906_0.10046142_0.039448515_0.19209337_-0.06384064_0.06704417_-0.03556314_0.2077873_0.110867836_-0.24845581_-0.0049769836_0.08605618_-0.103865534_0.021711545_0.10519723_0.026720388_-0.07823767_0.043398444_0.14709367_0.15008976_-0.042957123_-0.073995106_-0.121258624_0.055745482_0.087566644_0.06459411_0.045903053_-0.023540618,TEST-SEEN
37000,11/3/2019 22:19,38.89415624,-92.29442947,24.934384,6.039738,102.6213944,17,14.415,6.039738,102.6213944,73,24.934384,P-GPS,,38.42475553,-92.1275628,21.653544,0,0.237021661,16,14.887,0,0.237021661,71,21.653544,P-GPS,,38.89450227,-92.29438785,70.209976,0,9.108202391,19,14.094,1.7448132,10.28038091,95,70.209976,P-GPS,,53,53,2,0.821804721,TRUE,TRAIN,SEEN,0.10992857_0.1510219_-0.055731095_0.0960547_-0.008790308_0.08609769_0.14581414_0.04757261_-0.028554952_0.011356731_0.06340944_0.04294042_0.11643838_-0.17996973_-0.008489426_-0.0081717195_-0.009991915_-0.04489608_-0.12807338_0.10657433_0.057878535_-0.06492785_-0.027003994_0.04175903_-0.021099504_-0.20184653_-0.1561472_-0.10485612_-0.024128038_0.18449757_-0.051820263_0.07825458_-0.017038032_0.11544408_-0.065809496_-0.086127646_0.04004156_-0.023369595_-0.05679929_0.021769816_-0.0017079727_-0.1542779_0.070449_-0.010053225_-0.03962474_-0.014114425_0.078230634_-0.026770769_-0.08510483_0.13798717_0.14191294_-0.013104471_-0.10089929_0.021948135_0.036702067_-0.010623265_-0.0935952_-0.061251234_0.013849508_0.054143865_-0.047174998_-0.058666002_-0.031044796_-0.19666937_0.03280774_-0.12802288_0.004914221_-0.10088875_-0.19176672_-0.12997_-0.0064482773_0.033637386_-0.067529246_0.030137733_-0.010294517_0.08277457_0.11580466_0.01733313_-0.00794686_0.17545982_-0.023181088_-0.19689052_-0.014752502_0.0781332_0.0005677089_0.14828864_-0.0179537_-0.15972947_0.006634232_0.062004305_-0.09374565_-0.18252079_-0.10053444_0.028538689_-0.14238523_-0.01574674_0.006798471_-0.06476195_0.001036879_0.037160695_0.016522324_0.094589725_-0.0043872446_0.15672952_-0.07372487_-0.0002322199_-0.027719162_0.23539472_-0.05117026_0.022762666_-0.07722935_-0.029075272_-0.09000332_-0.036897317_-0.06220643_0.030662928_0.018658414_0.084071174_-0.013978826_0.16579038_-0.04762818_0.019053346_-0.012719671_0.14740819_0.13550304_-0.036010772_0.036810618_-0.06581757,TRAIN-SEEN
37100,11/3/2019 22:19,38.89415378,-92.29442967,24.934384,5.816044,103.5190322,17,14.415,6.039738,103.5190322,73,24.934384,P-GPS,,38.42475549,-92.12756285,21.653544,0,0.252447843,16,14.887,0,0.252447843,71,21.653544,P-GPS,,38.89450214,-92.29438775,70.209976,0,9.055872993,19,14.094,1.7448132,10.28038091,95,70.209976,P-GPS,,54,54,2,0.774277164,TRUE,TRAIN,SEEN,0.03934008_0.09433049_-0.11253208_-0.0915636_0.11677227_0.1799089_0.004964589_0.08326638_-0.0023070737_0.011685198_0.004797341_0.10948857_0.0849233_-0.20880616_0.0043462403_0.062037107_-0.06991204_-0.034867845_-0.116425365_0.067481205_0.044807494_0.11982871_0.07279112_0.078200966_-0.037888538_-0.12155613_0.08015306_-0.064093366_0.043143455_0.11005915_0.01009599_-0.017833076_0.014362197_0.12959842_-0.06856401_-0.06453982_0.049673725_-0.14045353_-0.042283293_0.11110946_0.05921718_-0.14973861_0.097172916_0.12237939_-0.11016053_-0.11604687_0.098710254_0.072100885_-0.022778507_0.23969248_0.13744034_-0.0823017_-0.13763309_-0.008104395_0.0070097973_0.0067829634_-0.050547488_0.014950784_-0.04284172_0.033433598_-0.122150205_-0.06031988_0.07199228_-0.11096507_-0.008557811_-0.21815707_-0.05913568_-0.05106741_-0.12698592_-0.017465487_-0.07719046_0.07853922_-0.09189949_6.7652545e-05_0.0105347615_0.04506822_0.07789199_0.07494609_-0.037517123_0.121856056_0.11051154_-0.07540248_0.10148515_0.17879096_0.00039292462_0.0728747_0.032344054_-0.01922057_0.030300217_0.09403783_-0.037680116_-0.13789088_-0.22809307_0.096195534_-0.045491315_0.024822162_-0.09460117_0.046655364_-0.085326746_-0.015002884_0.028294174_-0.015481049_-0.033319313_0.118219085_-0.061857052_-0.017991757_-0.12928766_0.10034685_-0.08601989_0.022121705_0.01470032_0.04774228_-0.0043635666_0.0758822_-0.10692237_0.018950589_0.05140961_0.096771_-0.027397841_0.231424_0.08651215_0.008013516_0.030228365_0.03484529_-0.06248518_-0.04190952_-0.027594144_0.0015252008,TRAIN-SEEN
37200,11/3/2019 22:19,38.89415137,-92.29442983,24.934384,5.59235,104.3989535,17,14.402,6.039738,104.3989535,73,24.934384,P-GPS,,38.42475547,-92.12756291,21.653544,0,0.264510835,16,14.887,0,0.264510835,71,21.653544,P-GPS,,38.89450218,-92.29438778,70.209976,0,9.073851996,19,14.057,1.7448132,10.28038091,95,70.209976,P-GPS,,55,55,2,0.794482965,TRUE,TRAIN,SEEN,0.080547586_0.110686496_0.03195012_-0.024514785_0.03207294_0.16798687_0.026497971_0.17372085_0.07759503_-0.012815089_0.124484606_0.04141114_0.04063451_-0.21178566_0.0637565_-0.06256809_-0.040674318_0.033814333_-0.17462356_0.016164046_0.07268218_0.12205923_0.02167761_0.10989428_0.00885692_-0.21630399_0.06955204_-0.0061586555_0.009227821_0.028992042_0.04357668_-0.14808372_0.04383457_0.17324227_-0.049633734_-0.08526511_0.033092137_-0.10479999_-0.095847726_0.08914022_0.06923217_-0.110508434_-0.00080791384_0.12734014_-0.11426836_-0.22093756_-0.015134942_0.020725062_-0.018086448_0.21808787_0.12077824_-0.029476808_-0.17674917_0.0040259548_-0.04989033_0.025124826_-0.1295968_-0.04918008_-0.046277907_-0.017003808_-0.13659674_-0.131142_0.0233396_-0.10157608_-0.04852166_-0.1515276_0.024954535_-0.08051089_-0.13441104_0.05005629_-0.012287505_0.019735556_-0.02615349_-0.022568444_-0.01158335_-0.043240353_0.036325544_0.041887894_-0.02854582_0.11760095_-0.0016958389_-0.07800698_0.11636798_0.08853452_0.06919477_0.06723741_0.04949115_-0.049618468_0.056652345_0.11860013_-0.01195394_-0.20134361_-0.1853456_0.041351072_-0.05771483_-0.06581259_-0.12100056_-0.06376808_-0.10634768_0.014474312_0.004582491_0.04438462_0.0117554655_0.038533833_-0.01103922_-0.0045176093_-0.025699275_0.036933534_-0.035113487_-0.0415431_0.018857745_0.037486993_-0.026032181_0.09085972_-0.021039924_-0.03661755_0.058075674_0.045662068_0.04096388_0.15341637_0.07790945_0.008957964_-0.0447437_0.1215466_0.12794784_-0.101859204_0.12584062_0.026357189,TRAIN-SEEN
37300,11/3/2019 22:19,38.89414921,-92.2944299,24.934384,5.59235,105.1889797,17,14.402,6.039738,105.1889797,73,24.934384,P-GPS,,38.42475546,-92.12756296,21.653544,0,0.275153224,16,14.887,0,0.275153224,71,21.653544,P-GPS,,38.89450223,-92.2943878,70.209976,0,9.089107902,19,14.057,1.7448132,10.28038091,95,70.209976,P-GPS,,56,56,2,0.763775693,TRUE,TRAIN,SEEN,0.05536834_0.16733769_0.05519765_0.047183834_-0.038829774_0.14716339_0.12387827_0.075433806_-0.006947852_-0.01577492_0.105246626_0.019501615_0.06460442_-0.17250563_0.007062692_-0.08436627_-0.118157044_-0.009076495_-0.13301736_0.0035600998_0.1200852_-0.08101813_-0.043834765_0.13371442_0.07074079_-0.21912971_-0.066679396_-0.059495963_0.022133987_0.12631008_0.017359866_-0.10698163_-0.016258892_0.13757055_-0.043962456_-0.09517516_-0.040378436_-0.05565467_-0.055036202_0.01709133_0.044880446_-0.18788709_0.04411237_0.056676626_-0.035759203_-0.11716288_0.047324322_-0.028888486_-0.14967403_0.08344476_0.068992555_-0.00038090412_-0.072949775_-0.007226652_0.029641364_0.07907775_-0.14541203_0.057815433_-0.06042095_-0.025772776_-0.080452606_-0.043068223_0.06932023_-0.12703626_0.023211474_0.0022516171_-0.008500312_-0.12012066_-0.23236002_-0.020719362_-0.02677119_0.026620643_-0.10007584_-0.010370595_0.060547683_0.037339613_0.08366015_-0.019863486_0.027948061_0.18072918_-0.10314082_-0.18050455_0.06856067_0.0493947_-0.05392304_0.10271352_0.03033356_-0.1191399_0.026981784_0.091772795_-0.0070857764_-0.2338393_-0.056062996_0.027895657_-0.13212118_-0.05417616_-0.074297965_-0.050047666_0.034413036_0.033811327_0.028774373_0.08327763_-0.027961262_0.09160203_-0.031508867_0.079269394_-0.0078625195_0.18182114_-0.05237485_-0.104510106_-0.003111522_0.0072902646_-0.09151415_-0.0143569_0.033209298_0.068546146_0.0059470045_0.117252395_0.09113339_0.20387854_0.015404914_-0.07324493_-0.11679382_0.08869227_0.09924254_0.05532234_0.08760675_-0.014123745,TRAIN-SEEN
37400,11/3/2019 22:19,38.89414707,-92.29443014,24.934384,4.47388,105.9698197,17,14.402,6.039738,105.9698197,73,24.934384,P-GPS,,38.42475545,-92.1275633,21.981628,0,0.32688715,16,14.887,0,0.32688715,71,21.981628,P-GPS,,38.89450222,-92.2943879,70.209976,0,9.108694517,19,14.057,1.7448132,10.28038091,95,70.209976,P-GPS,,57,57,2,0.798110971,TRUE,TRAIN,SEEN,0.041773554_0.20496465_0.014622076_-0.019181944_0.008020621_0.22484179_-0.018745394_0.10658206_0.012256384_0.08651294_0.11025989_0.033179965_0.020384545_-0.19886348_0.06816041_0.005286403_-0.040417597_-0.0072509837_-0.11018583_0.0050197896_-0.020037727_0.10347054_0.044354152_0.06708331_-0.007096948_-0.16393167_0.06388333_0.03140881_0.039032392_-0.0015123078_0.03522035_-0.10122302_-0.009755149_0.13475338_-0.0738702_-0.028020669_0.067788154_-0.10151101_-0.019316716_0.16749656_0.024530923_-0.11785625_0.01773019_0.0044954093_-0.086401485_-0.19731635_0.058315866_0.028765695_-0.049623497_0.25513873_0.18086497_0.038534723_-0.22532287_0.03160351_-0.03905604_0.01803673_-0.06530226_-0.04909229_-0.027653025_0.0038849679_-0.16895975_-0.07913239_0.054103915_-0.21601662_0.004509694_-0.10665943_0.03940328_-0.065085374_-0.16916242_0.11742429_-0.017515808_0.12079469_-0.03194147_0.11237722_0.04189899_-0.0507705_0.073050395_0.082876764_-0.029372944_0.0450214_0.028365076_-0.06381303_0.12684228_0.11483762_0.038212594_0.059695616_-0.0029526497_-0.032778848_0.09733365_0.09814878_-0.055243492_-0.17097974_-0.12307748_0.08854783_0.007854114_-0.06916346_-0.054521214_-0.012316476_-0.112810224_0.036486313_-0.041410666_0.03202665_-0.05199655_0.073258154_0.0057707205_0.06095547_-0.023558293_-0.0022932726_-0.04077769_-0.010046425_-0.02685358_0.08427926_0.074985616_0.11557755_-0.019507455_-0.08446448_0.07803965_0.0889336_0.039604906_0.13842805_0.08392195_-0.027711151_0.058262352_0.069039516_0.09826681_-0.04603855_0.10936023_0.03149832,TRAIN-SEEN
37500,11/3/2019 22:19,38.89414534,-92.29443016,24.934384,3.802798,106.6010533,17,14.402,6.039738,106.6010533,73,24.934384,P-GPS,,38.42475544,-92.12756338,21.981628,0,0.343031507,16,14.887,0,0.343031507,71,21.981628,P-GPS,,38.89450225,-92.29438789,70.209976,0,9.112893992,19,14.057,1.7448132,10.28038091,95,70.209976,P-GPS,,58,58,2,0.749972117,TRUE,TEST,SEEN,0.09507536_-0.0017516362_-0.121936046_0.019419562_0.07855148_0.15110761_0.026365513_0.09956569_-0.022304298_0.04526899_0.047136746_0.07961505_0.11404204_-0.105196424_0.09833921_-0.024298133_0.0428822_-0.021729626_-0.0417735_0.06770987_-0.043993343_0.07633752_0.08526829_0.059314005_-0.01892193_-0.1919724_0.035900563_-0.061204262_-0.0868382_0.08042237_0.029535742_0.024231115_0.010548336_0.108744115_-0.11428344_-0.0038426889_0.021802016_-0.20018914_-0.08994479_0.12305451_0.066201575_-0.12697648_-0.009407348_0.06436773_-0.16307697_-0.09503968_-0.0118310135_0.06836912_0.092915095_0.21224244_0.20143163_-0.053370554_-0.1181012_-0.027210375_-0.05552644_-0.009616171_-0.049161036_-0.069771186_0.066539854_0.14331914_-0.11782518_-0.050944436_-0.088590816_-0.1571154_-0.018433835_-0.23482083_0.01674119_-0.025188107_-0.09307507_-0.019162593_-0.029363813_0.09102694_-0.048389513_-0.040513445_-0.050412763_0.062249985_0.08464819_0.046897598_-0.060875524_0.16612491_0.03958267_-0.18479799_0.06697493_0.12996157_0.023988301_0.10777864_0.051079266_-0.11255007_-0.04611379_0.02746012_-0.11508175_-0.07894176_-0.1320734_0.054490842_-0.115880065_-0.024662191_-0.060429387_-0.06336281_-0.08654327_-0.005738633_0.039009694_0.058191203_0.02822379_0.077460565_-0.002720283_-0.06313589_-0.096096225_0.081464596_-0.09439127_0.09582578_-0.059000332_-0.023412434_0.03658568_0.007506168_-0.1590126_-0.009928321_0.09963446_0.07907203_-0.03868176_0.21028921_0.039884564_-0.042152215_-0.040900227_0.09929044_0.042082466_-0.096878126_-0.029802263_0.063570604,TEST-SEEN
37600,11/3/2019 22:19,38.89414389,-92.2944302,24.934384,3.35541,107.1295966,17,14.402,6.039738,107.1295966,73,24.934384,P-GPS,,38.42475546,-92.12756341,22.637796,0,0.34335631,16,14.887,0,0.34335631,71,22.637796,P-GPS,,38.89450222,-92.29438802,70.209976,0,9.132513416,19,14.057,1.7448132,10.28038091,95,70.209976,P-GPS,,59,59,2,0.839355107,TRUE,TEST,SEEN,0.09392836_0.15306506_-0.060982674_-0.01484777_0.08106581_0.15601473_0.026255695_0.089547046_-0.0038610424_-0.00019512806_0.066777654_0.0817091_0.044860158_-0.22416167_-0.02706562_0.040942304_-0.015555911_0.027435875_-0.11672705_0.09507684_0.07643898_0.10386966_0.035594847_0.0507287_-0.020976534_-0.16205287_0.02374521_-0.015524188_0.055287495_0.12891825_-0.035498746_-0.03688176_0.026977401_0.13530858_-0.034609348_-0.10827388_0.08689952_-0.09655602_0.0020139404_0.056680616_0.0025586886_-0.10550268_0.12978989_0.060632654_-0.09658289_-0.18205968_0.099809766_0.008602297_-0.03313138_0.27645138_0.14800401_-0.016467799_-0.1733298_0.062342323_0.008725345_-0.027294692_-0.037939787_-0.06792052_-0.070178464_-0.010620416_-0.10306336_-0.09368234_0.07527677_-0.16751142_-0.028525494_-0.16875865_-0.025140999_-0.12113517_-0.16787128_-0.022745313_-0.04057841_0.059654675_-0.055459954_0.07019934_-0.018146727_-0.011253522_0.119698256_0.05142935_-0.02277567_0.08142716_0.07282061_-0.040712178_0.1015771_0.14892387_0.08572292_0.08740144_-0.043800756_-0.022673603_0.1128209_0.11268102_-0.023601208_-0.17761013_-0.22171846_0.09785685_-0.002449163_-0.049843095_-0.07547844_0.05391454_-0.12592429_0.009836181_-0.0009847484_0.027685575_-0.004816938_0.119807735_-0.038367573_0.03332596_-0.009672706_0.08822407_-0.03112558_0.017373275_-0.016413884_0.018122893_-0.0002029121_0.121985875_-0.065490335_-0.04319808_0.1044803_0.0829016_-0.0017731967_0.15348889_0.040468402_0.039184332_0.075847745_0.04468577_0.039315615_-0.06790317_0.10569919_-0.012965235,TEST-SEEN
37700,11/3/2019 22:19,38.89414243,-92.29443038,24.934384,2.684328,107.6643735,17,14.402,6.039738,107.6643735,73,24.934384,P-GPS,,38.42475549,-92.12756345,22.637796,0,0.342759197,16,14.899,0,0.34335631,71,22.637796,P-GPS,,38.89450223,-92.29438799,70.209976,0,9.12995436,19,14.057,1.7448132,10.28038091,95,70.209976,P-GPS,,60,60,2,0.598505429,TRUE,TEST,SEEN,0.029019665_0.23854956_0.096812814_-0.0041951193_-0.13662855_0.11055114_0.022443354_0.12690692_-0.10031495_0.10041835_0.07657958_-0.0492691_0.07327469_-0.17774102_0.017599909_-0.04046917_-0.037252843_-0.02453116_-0.05618083_0.07605619_0.03589416_-0.061753627_-0.0048345784_0.124794915_-0.01682265_-0.08904995_-0.03286635_-0.009370301_0.121806376_0.029599758_-0.031887725_-0.11255977_0.019078074_0.10569147_-0.05027347_-0.10649333_0.041585088_0.115489386_0.01906889_0.03202594_-0.08485602_-0.18356797_-0.00040660368_-0.06522095_0.006407899_-0.11086813_0.10280727_-0.015433805_-0.21143447_0.14928518_0.08909957_0.11768439_-0.060072977_0.062124513_0.017991874_4.9192444e-05_0.008798725_-0.058910783_-0.018368011_-0.15764368_-0.09328003_-0.025651343_0.06069562_-0.14345591_-0.047356293_0.061837677_0.044223946_-0.10104541_-0.21959865_-0.071028456_-0.060627487_-0.030111311_-0.109822825_0.13026941_0.14136769_-0.049313605_0.07365801_0.02395732_0.14448129_0.15719275_-0.08369312_-0.1418078_0.072448835_0.015055353_0.07272274_0.0373749_-0.06379229_-0.028919835_0.19263504_0.08785988_-0.036979638_-0.13676965_0.016544806_0.1253415_-0.068320096_-0.09808418_0.023790797_0.058646496_-0.03877007_-0.046427295_0.025350338_0.09741057_-0.07985409_0.13727126_-0.03590858_0.11109291_0.05508806_0.06553346_0.08014312_-0.121729195_-0.00088924175_0.12095437_-0.021800276_0.023462098_0.03302827_0.007562755_-0.020223502_0.034669448_0.05453715_0.10497804_-0.023818227_-0.09014845_0.013668048_0.0068877414_0.0714001_0.06353929_0.15051381_-0.041358892,TEST-SEEN
37800,11/3/2019 22:19,38.89414156,-92.29443057,24.934384,2.23694,107.9862239,17,14.402,6.039738,107.9862239,73,24.934384,P-GPS,,38.42475569,-92.12756348,22.96588,0,0.301652897,16,14.899,0,0.34335631,71,22.96588,P-GPS,,38.89450223,-92.29438807,70.209976,0,9.147342812,19,14.057,1.7448132,10.28038091,95,70.209976,P-GPS,,61,61,2,0.828032133,TRUE,TEST,SEEN,0.11295064_0.13196363_-0.087163016_0.0061026346_0.08558162_0.09584908_0.097491644_0.04970744_-0.039230984_-0.013179915_0.04694711_0.076995954_0.08035544_-0.15506373_0.03816066_0.008730998_0.018598087_-0.026147101_-0.11496527_0.0875082_-0.0077649504_0.09319012_0.044421807_0.07808527_-0.024017042_-0.2046779_0.02264078_-0.024763864_0.014402421_0.16237846_-0.057440866_0.0017994946_0.027919065_0.14508544_-0.07344871_-0.09779466_0.062701754_-0.11182603_-0.09584914_0.08050059_0.034732495_-0.12409637_0.113833606_0.087477535_-0.12818755_-0.005746815_0.071645565_0.034353156_-0.049395315_0.22386713_0.16587418_-0.059544858_-0.12665346_-0.014867816_-0.0032316328_-0.0049761273_-0.10527315_-0.00042992894_0.0092088645_0.10749315_-0.100594215_-0.05735508_-0.003396104_-0.14703333_0.0073670414_-0.18126766_-0.05117918_-0.111689135_-0.20174564_-0.06688938_-0.041724462_0.03036785_-0.053110942_0.014482239_0.0014750138_0.06485739_0.12042633_0.03303802_-0.03436611_0.11860069_0.07747449_-0.15667808_0.021756362_0.11185139_0.030849658_0.0897461_-0.03251043_-0.14699826_-0.033337183_0.12952748_-0.048731778_-0.16335636_-0.19440947_0.030958904_-0.055762373_0.015412046_-0.053835128_-0.022546265_-0.021429423_-0.01122489_-0.0036139113_0.06973301_0.040468335_0.12884945_-0.113107204_-0.03846573_-0.07725897_0.17642306_-0.06164885_0.011733266_0.03952261_-0.00069780415_-0.0101528345_0.047262553_-0.13674119_-0.006915668_0.06519421_0.10249535_-0.021634545_0.21379675_0.021806065_0.014924278_-0.041070912_0.11649191_0.051665153_-0.074266315_0.0031492624_-0.068937294,TEST-SEEN
37900,11/3/2019 22:19,38.89414073,-92.29443059,24.934384,1.789552,108.2890455,17,14.402,6.039738,108.2890455,73,24.934384,P-GPS,,38.42475574,-92.12756351,23.293964,0,0.298335968,16,14.899,0,0.34335631,71,23.293964,P-GPS,,38.89450216,-92.29438809,70.209976,0,9.135892681,19,14.057,1.7448132,10.28038091,95,70.209976,P-GPS,,62,62,2,0.801630378,TRUE,TEST,SEEN,0.13955149_0.15381569_-0.09284269_0.05096717_0.0013083786_0.15079753_0.099223286_0.02363887_-0.12623839_0.022934675_0.06261621_0.061891068_0.071057536_-0.14660548_0.021331528_-0.016946778_0.0048773256_-0.045631036_-0.038727615_0.09490942_-0.031921033_0.04952145_0.020806802_0.10656547_-0.03522419_-0.16042012_-5.4924585e-05_-0.04585221_0.0031226045_0.16551459_-0.110996746_0.005235241_-0.025969397_0.12698886_-0.08800736_-0.07220593_0.048211336_-0.095560715_-0.07337133_0.08832931_-0.021526685_-0.14586532_0.0838619_0.03546641_-0.104363896_-0.0027262429_0.12917423_0.010469658_-0.114697665_0.2383989_0.2091908_-0.005559831_-0.109286845_0.030948281_0.047432587_-0.0054152496_-0.07362556_0.0211984_0.051645387_0.060591295_-0.083931156_-0.007354068_0.053169966_-0.20903112_0.013818905_-0.118658714_0.0047399295_-0.13892213_-0.21647409_-0.039134353_-0.063710205_0.049126197_-0.05312042_0.10534807_0.026608327_0.032488532_0.13623115_0.013243493_0.0015867548_0.12195942_0.06786547_-0.16746628_-0.0010608198_0.02685487_0.023438893_0.08470708_-0.064182386_-0.17409076_0.0058238953_0.13170762_-0.039243955_-0.15915237_-0.13029808_0.05086821_-0.06600008_0.004027204_0.026482677_-0.01424227_0.028672427_-0.002713011_-0.004454613_0.12962525_0.02298986_0.12428581_-0.144608_0.01564728_-0.05651413_0.15816763_-0.096608385_0.008883394_0.05360084_0.042645697_0.033018038_-0.007212678_-0.10625625_-0.0039619245_0.0853299_0.08003195_0.0052251075_0.16465169_0.007420523_-0.066883035_0.033387814_0.07600133_0.06518757_-0.014834233_0.05278224_-0.07726397,TEST-SEEN
38000,11/3/2019 22:19,38.89414004,-92.29443098,25.262468,1.789552,108.5456071,17,14.402,6.039738,108.5456071,73,25.262468,P-GPS,,38.42475572,-92.12756351,23.622048,0,0.304739511,16,14.899,0,0.34335631,71,23.622048,P-GPS,,38.89450227,-92.29438808,70.209976,0,9.157808692,19,14.057,1.7448132,10.28038091,95,70.209976,P-GPS,,63,63,2,0.850947468,TRUE,TRAIN,SEEN,0.1300282_0.21311615_-0.06127376_0.10632914_-0.007323981_0.11034379_0.120329686_0.073249295_-0.06551588_0.04879751_0.074188255_0.0017928503_0.058750413_-0.15166266_0.035801996_-0.071541294_0.084202155_0.009490245_-0.060521685_0.06974497_-0.02122016_-0.00489261_0.015585635_0.06407614_0.0067167436_-0.25532782_-0.06541146_-0.035470538_-0.022211853_0.12770121_-0.0729052_-0.04251895_-0.008804866_0.09959641_-0.047180004_-0.11673404_0.08168636_-0.03817153_-0.11526567_0.03682487_-0.022040363_-0.075584434_0.05696586_0.031489395_-0.12143761_-0.02237409_0.07915139_-0.020267868_-0.070765264_0.20882107_0.21166565_0.022194223_-0.13728032_0.014312937_-0.0016503491_-0.023377676_-0.073200345_-0.08293221_0.10180686_-0.00444053_-0.06299437_-0.06529546_-0.04449969_-0.2385804_0.030857394_-0.13882151_0.042927843_-0.13372852_-0.18581304_-0.03978554_0.009435575_0.054464225_0.0038059028_0.053786874_-0.041142374_0.028068898_0.09446429_0.05136946_0.008493158_0.10026043_-0.04534704_-0.1491066_-0.010134273_0.035824154_0.09802065_0.07029468_-0.07407378_-0.16096729_0.052926302_0.07845884_-0.10322929_-0.15852597_-0.09195246_-0.046560906_-0.0590971_-0.10014708_0.059730913_-0.03996437_-0.051332153_0.0054651313_-0.021217998_0.1590215_0.08343849_0.10611266_-0.12855726_-0.022215873_0.004604633_0.15150736_-0.038807802_0.051988836_0.017949685_-0.003619047_0.0026962114_0.01626968_-0.102510616_-0.05979219_0.0511639_0.033318155_-0.003294869_0.08873316_-0.057276838_0.020852247_-0.019191392_0.14273255_0.17668302_-0.10049883_0.07858915_-0.0713276,TRAIN-SEEN
38100,11/3/2019 22:19,38.89413934,-92.29443103,25.262468,1.565858,108.8018408,17,14.402,6.039738,108.8018408,73,25.262468,P-GPS,,38.4247557,-92.12756352,23.950132,0,0.30904627,16,14.899,0,0.34335631,71,23.950132,P-GPS,,38.89450227,-92.29438807,70.53806,0,9.158432052,19,14.066,1.7448132,10.28038091,95,70.53806,P-GPS,,64,64,2,0.888216534,TRUE,TEST,SEEN,0.116102934_0.17498398_-0.061447147_0.048279922_0.017831659_0.15707786_0.07568316_0.047369603_-0.062517084_0.06982421_0.10610435_0.047626134_0.09430931_-0.124934725_0.074935615_-0.03025646_0.06146269_-0.02222041_-0.06930498_0.0701752_-0.014822311_0.013912566_0.046902187_0.11561178_0.0337723_-0.21513158_0.015947782_-0.013266182_0.0067143156_0.13066949_-0.014115784_-0.03134467_0.014684171_0.1448965_-0.08712241_-0.07303151_0.047856502_-0.056478497_-0.05660398_0.07004318_-0.008299092_-0.14408761_0.052738644_0.017036084_-0.1231698_-0.082905255_0.05326333_0.036496967_-0.06386153_0.21270292_0.2091742_0.019282388_-0.13343443_-0.013465147_0.0015714066_0.010070786_-0.107596_0.0075520324_0.024360722_0.04236966_-0.14361976_-0.07403489_0.0211935_-0.24088009_0.030655213_-0.08644585_-0.011065511_-0.07298122_-0.25597438_-0.011034802_-0.023269271_0.07666642_-0.08661891_0.035250124_0.023502229_0.027396226_0.1437573_0.02355125_0.0066404915_0.15205063_-0.020006994_-0.20239979_0.063819714_0.05720996_0.024850879_0.045903884_-0.03163011_-0.13497159_0.054225616_0.09999338_-0.088674076_-0.18903288_-0.09069627_0.072998144_-0.061608728_-0.060665153_-0.02108125_-0.036097832_-0.03398222_-0.017700402_0.010642322_0.11561557_-0.0010704662_0.1293879_-0.08333526_0.02853275_-0.041838724_0.10746941_-0.022833075_-0.02894799_-0.003050212_0.05221561_0.020390691_0.06754372_-0.058236215_-0.024176186_0.05405369_0.11068148_0.02293986_0.22204438_0.012529016_-0.057104893_-0.03614117_0.113420196_0.110868745_-0.026355494_0.07841718_-0.039057046,TEST-SEEN
38200,11/3/2019 22:19,38.89413906,-92.2944313,25.262468,1.789552,108.90814,18,14.396,6.039738,108.90814,73,25.262468,P-GPS,,38.42475575,-92.12756344,24.6063,0,0.279391413,16,14.899,0,0.34335631,71,24.6063,P-GPS,,38.89450228,-92.29438818,70.53806,0,9.181726016,19,14.066,1.7448132,10.28038091,95,70.53806,P-GPS,,65,65,2,0.809521714,TRUE,TEST,SEEN,0.14762026_0.05096193_-0.067724705_0.06052809_0.043155015_0.22055319_0.021397442_0.10963693_-0.02045328_0.037006177_0.15834574_0.103061_0.0239348_-0.1985923_-0.004415889_-0.015523534_0.037747264_0.111763455_-0.09854453_0.061338093_0.036046214_0.07388354_0.04388342_0.13443372_-0.046480022_-0.16621548_0.045085248_-0.091326386_-0.08066665_0.026895149_-0.054365125_-0.06299333_-0.01967023_0.15668093_-0.07438581_-0.0240039_0.019933606_-0.13806815_-0.093852304_0.103360735_0.014024733_-0.051440634_-0.03478129_0.05101057_-0.13364343_-0.18848401_0.05545791_-0.008950243_-0.062249634_0.24991292_0.21531135_-0.06584499_-0.2157497_0.036855116_-0.017709998_0.013093681_-0.04899892_-0.042535964_0.015957149_0.053982176_-0.07596151_-0.06276868_0.058428932_-0.22706944_0.03398822_-0.20555301_0.0128530795_-0.04767178_-0.11227189_0.1350367_-0.008796966_0.07828419_0.002785469_0.03516406_-0.08396135_-0.04056951_0.068625964_0.10856353_-0.06741581_-0.002696574_-0.031687897_-0.027926916_0.029778231_-0.0097587_-0.007501351_0.11609163_0.029511558_-0.100000925_0.022294838_0.096495144_-0.026948554_-0.16573182_-0.16845801_0.0309547_0.009176775_-0.018741382_-0.053388145_-0.08197321_-0.106216334_0.05075551_0.00017433912_0.050546844_-0.0078194905_0.031604275_0.035943702_-0.002918014_-0.03049006_-0.01209528_-0.14989237_0.022942727_-0.02968785_0.05487444_0.13272423_0.02255302_-0.01533636_-0.06758328_0.060483906_-0.010497791_0.019490404_0.09618876_0.027013348_-0.010220684_0.04381868_0.1107299_0.14019127_-0.05697102_0.08954333_-0.009862528,TEST-SEEN
